[
  {
    "admin_name": "An Giang",
    "place_id": 306766306,
    "lat": 10.5392057,
    "lng": 105.2312822,
    "boundary_box": [
      "10.1834603",
      "10.962188",
      "104.7783424",
      "105.5756159"
    ]
  },
  {
    "admin_name": "Bà Rịa - Vũng Tàu",
    "place_id": 307911017,
    "lat": 10.5738801,
    "lng": 107.3284362,
    "boundary_box": [
      "8.3979987",
      "10.8042874",
      "106.3143616",
      "108.4311207"
    ]
  },
  {
    "admin_name": "Bạc Liêu",
    "place_id": 308065512,
    "lat": 9.3298341,
    "lng": 105.509946,
    "boundary_box": [
      "8.291231",
      "9.6375498",
      "105.2324796",
      "106.0553036"
    ]
  },
  {
    "admin_name": "Bắc Giang",
    "place_id": 308018898,
    "lat": 21.3092863,
    "lng": 106.6165128,
    "boundary_box": [
      "21.1219509",
      "21.6262727",
      "105.8805752",
      "107.033472"
    ]
  },
  {
    "admin_name": "Bắc Kạn",
    "place_id": 308053871,
    "lat": 22.2571701,
    "lng": 105.8588958,
    "boundary_box": [
      "21.804335",
      "22.7413755",
      "105.4311192",
      "106.2469976"
    ]
  },
  {
    "admin_name": "Bắc Ninh",
    "place_id": 308025575,
    "lat": 21.1212051,
    "lng": 106.0880245,
    "boundary_box": [
      "20.9691182",
      "21.2642979",
      "105.9041498",
      "106.3119298"
    ]
  },
  {
    "admin_name": "Bến Tre",
    "place_id": 32053730,
    "lat": 10.1245254,
    "lng": 106.4690447,
    "boundary_box": [
      "7.5245254",
      "12.7245254",
      "103.8690447",
      "109.0690447"
    ]
  },
  {
    "admin_name": "Bình Dương",
    "place_id": 307915208,
    "lat": 11.1836551,
    "lng": 106.7031737,
    "boundary_box": [
      "10.8634587",
      "11.5008534",
      "106.3285427",
      "106.966694"
    ]
  },
  {
    "admin_name": "Bình Định",
    "place_id": 307910369,
    "lat": 14.0779378,
    "lng": 108.9898798,
    "boundary_box": [
      "13.5152166",
      "14.7032024",
      "108.6012515",
      "109.5849213"
    ],
    "has_train": true
  },
  {
    "admin_name": "Bình Phước",
    "place_id": 23065892,
    "lat": 11.7332484,
    "lng": 106.906249,
    "boundary_box": [
      "9.1332484",
      "14.3332484",
      "104.306249",
      "109.506249"
    ]
  },
  {
    "admin_name": "Bình Thuận",
    "place_id": 307919731,
    "lat": 11.101462,
    "lng": 107.9415938,
    "boundary_box": [
      "9.3780225",
      "11.5555794",
      "107.3941993",
      "109.4019255"
    ],
    "has_train": true
  },
  {
    "admin_name": "Cà Mau",
    "place_id": 308047152,
    "lat": 9.0180177,
    "lng": 105.0869724,
    "boundary_box": [
      "8.1790665",
      "9.561434",
      "103.4821147",
      "105.6738606"
    ]
  },
  {
    "admin_name": "Cao Bằng",
    "place_id": 307955779,
    "lat": 22.7730867,
    "lng": 106.0017225,
    "boundary_box": [
      "22.3569233",
      "23.1187947",
      "105.266713",
      "106.8376464"
    ]
  },
  {
    "admin_name": "Cần Thơ",
    "place_id": 354678611,
    "lat": 10.0364216,
    "lng": 105.7875219,
    "boundary_box": [
      "9.8764216",
      "10.1964216",
      "105.6275219",
      "105.9475219"
    ]
  },
  {
    "admin_name": "Đà Nẵng",
    "place_id": 307990248,
    "lat": 16.068,
    "lng": 108.212,
    "boundary_box": [
      "15.9179546",
      "16.3340091",
      "107.8187817",
      "108.6563747"
    ],
    "has_train": true
  },
  {
    "admin_name": "Đắk Lắk",
    "place_id": 308108969,
    "lat": 12.8399392,
    "lng": 108.2284947,
    "boundary_box": [
      "12.1607931",
      "13.4165868",
      "107.4847358",
      "108.9952998"
    ]
  },
  {
    "admin_name": "Đắk Nông",
    "place_id": 308063941,
    "lat": 12.1288687,
    "lng": 107.5874261,
    "boundary_box": [
      "11.7488468",
      "12.8123163",
      "107.2064127",
      "108.1166958"
    ]
  },
  {
    "admin_name": "Điện Biên",
    "place_id": 308028900,
    "lat": 21.6546566,
    "lng": 103.2168632,
    "boundary_box": [
      "20.8926915",
      "22.5479246",
      "102.1438643",
      "103.5987948"
    ]
  },
  {
    "admin_name": "Đồng Nai",
    "place_id": 307956380,
    "lat": 11.0355624,
    "lng": 107.1881076,
    "boundary_box": [
      "10.5792082",
      "11.5819941",
      "106.7511678",
      "107.5772886"
    ],
    "has_train": true
  },
  {
    "admin_name": "Đồng Tháp",
    "place_id": 307994188,
    "lat": 10.590424,
    "lng": 105.6802341,
    "boundary_box": [
      "10.1347692",
      "10.9733183",
      "105.1855756",
      "105.9418968"
    ]
  },
  {
    "admin_name": "Gia Lai",
    "place_id": 308074095,
    "lat": 13.8177445,
    "lng": 108.2004015,
    "boundary_box": [
      "12.9962314",
      "14.603162",
      "107.4513832",
      "108.8733183"
    ]
  },
  {
    "admin_name": "Hà Giang",
    "place_id": 307988046,
    "lat": 22.6068909,
    "lng": 104.79948,
    "boundary_box": [
      "22.1655603",
      "23.3926918",
      "104.3343417",
      "105.5741071"
    ]
  },
  {
    "admin_name": "Hà Nam",
    "place_id": 308303654,
    "lat": 20.5269088,
    "lng": 105.9543527,
    "boundary_box": [
      "20.36286",
      "20.7043816",
      "105.7690113",
      "106.1832245"
    ]
  },
  {
    "admin_name": "Hà Nội",
    "place_id": 307997341,
    "lat": 21.0294498,
    "lng": 105.8544441,
    "boundary_box": [
      "20.5645154",
      "21.3852777",
      "105.2848986",
      "106.0200725"
    ],
    "has_train": true
  },
  {
    "admin_name": "Hà Tĩnh",
    "place_id": 308040608,
    "lat": 18.3504832,
    "lng": 105.7623047,
    "boundary_box": [
      "17.9096017",
      "18.857548",
      "105.1034678",
      "106.7527613"
    ]
  },
  {
    "admin_name": "Hải Dương",
    "place_id": 308059884,
    "lat": 20.9443681,
    "lng": 106.3780373,
    "boundary_box": [
      "20.684379",
      "21.2369932",
      "106.1243692",
      "106.6115432"
    ]
  },
  {
    "admin_name": "Hải Phòng",
    "place_id": 308178083,
    "lat": 20.858864,
    "lng": 106.6749591,
    "boundary_box": [
      "19.9265816",
      "21.0202876",
      "106.4005479",
      "107.9511219"
    ],
    "has_train": true
  },
  {
    "admin_name": "Hậu Giang",
    "place_id": 308033486,
    "lat": 9.7985063,
    "lng": 105.6379524,
    "boundary_box": [
      "9.5821509",
      "9.9941152",
      "105.3285245",
      "105.8968064"
    ]
  },
  {
    "admin_name": "Hoà Bình",
    "place_id": 308114491,
    "lat": 20.6763365,
    "lng": 105.3759952,
    "boundary_box": [
      "20.3053594",
      "21.1127685",
      "104.8364751",
      "105.8571482"
    ]
  },
  {
    "admin_name": "Hồ Chí Minh",
    "place_id": 308078309,
    "lat": 10.7764772,
    "lng": 106.701938,
    "boundary_box": [
      "10.1399458",
      "11.1603083",
      "106.3567007",
      "107.0276712"
    ],
    "has_train": true
  },
  {
    "admin_name": "Hưng Yên",
    "place_id": 307926122,
    "lat": 20.8193369,
    "lng": 106.0314504,
    "boundary_box": [
      "20.6030956",
      "21.0072091",
      "105.8953248",
      "106.2695282"
    ]
  },
  {
    "admin_name": "Khánh Hòa",
    "place_id": 308003243,
    "lat": 12.2980751,
    "lng": 108.9950386,
    "boundary_box": [
      "7.6920852",
      "12.8685237",
      "108.6710126",
      "114.8572578"
    ],
    "has_train": true
  },
  {
    "admin_name": "Kiên Giang",
    "place_id": 351434498,
    "lat": 9.9904962,
    "lng": 105.2435248,
    "boundary_box": [
      "8.9945558",
      "10.5396121",
      "103.0522427",
      "105.5393966"
    ]
  },
  {
    "admin_name": "Kon Tum",
    "place_id": 308073148,
    "lat": 14.6995372,
    "lng": 107.9323831,
    "boundary_box": [
      "13.9212038",
      "15.4175326",
      "107.3353814",
      "108.5470991"
    ]
  },
  {
    "admin_name": "Lai Châu",
    "place_id": 308032068,
    "lat": 22.2921668,
    "lng": 103.1798662,
    "boundary_box": [
      "21.6860789",
      "22.813929",
      "102.3205299",
      "103.985835"
    ]
  },
  {
    "admin_name": "Lạng Sơn",
    "place_id": 308597773,
    "lat": 21.7773599,
    "lng": 106.740412,
    "boundary_box": [
      "21.3251504",
      "22.4614571",
      "106.0953797",
      "107.3640954"
    ]
  },
  {
    "admin_name": "Lào Cai",
    "place_id": 308037448,
    "lat": 22.2967657,
    "lng": 104.0566164,
    "boundary_box": [
      "21.8758057",
      "22.8449153",
      "103.5294336",
      "104.6286551"
    ],
    "has_train": true
  },
  {
    "admin_name": "Lâm Đồng",
    "place_id": 308073106,
    "lat": 11.6937725,
    "lng": 108.152754,
    "boundary_box": [
      "11.2151649",
      "12.3174385",
      "107.2657514",
      "108.7319502"
    ]
  },
  {
    "admin_name": "Long An",
    "place_id": 308048952,
    "lat": 10.6983968,
    "lng": 106.1883517,
    "boundary_box": [
      "10.3948326",
      "11.0321425",
      "105.5037151",
      "106.747241"
    ]
  },
  {
    "admin_name": "Nam Định",
    "place_id": 307965354,
    "lat": 20.2712241,
    "lng": 106.1629895,
    "boundary_box": [
      "19.7138161",
      "20.4991935",
      "105.9239975",
      "106.7957738"
    ]
  },
  {
    "admin_name": "Nghệ An",
    "place_id": 308127063,
    "lat": 19.1976001,
    "lng": 105.060676,
    "boundary_box": [
      "18.5521172",
      "19.9984008",
      "103.8745552",
      "106.1664675"
    ],
    "has_train": true
  },
  {
    "admin_name": "Ninh Bình",
    "place_id": 308552838,
    "lat": 20.2545421,
    "lng": 105.9764854,
    "boundary_box": [
      "20.199756",
      "20.2901354",
      "105.9270586",
      "106.0240844"
    ],
    "has_train": true
  },
  {
    "admin_name": "Ninh Thuận",
    "place_id": 308145190,
    "lat": 11.6965639,
    "lng": 108.8928476,
    "boundary_box": [
      "10.7630844",
      "12.1645338",
      "108.5516623",
      "109.5373734"
    ],
    "has_train": true
  },
  {
    "admin_name": "Phú Thọ",
    "place_id": 308075128,
    "lat": 21.321224,
    "lng": 105.1267207,
    "boundary_box": [
      "20.9170274",
      "21.7196447",
      "104.814289",
      "105.4568215"
    ]
  },
  {
    "admin_name": "Phú Yên",
    "place_id": 308023377,
    "lat": 13.1912633,
    "lng": 109.1273678,
    "boundary_box": [
      "12.7064782",
      "13.6951481",
      "108.6725944",
      "109.6665477"
    ],
    "has_train": true
  },
  {
    "admin_name": "Quảng Bình",
    "place_id": 308065490,
    "lat": 17.509599,
    "lng": 106.4004452,
    "boundary_box": [
      "16.9213748",
      "18.1309586",
      "105.6076748",
      "107.1233733"
    ],
    "has_train": true
  },
  {
    "admin_name": "Quảng Nam",
    "place_id": 308031431,
    "lat": 15.5761698,
    "lng": 108.0527132,
    "boundary_box": [
      "14.9513535",
      "16.1663171",
      "107.2109165",
      "109.0235567"
    ]
  },
  {
    "admin_name": "Quảng Ngãi",
    "place_id": 307910287,
    "lat": 14.9635349,
    "lng": 108.6642632,
    "boundary_box": [
      "14.5327295",
      "15.7972884",
      "108.2354886",
      "109.4632349"
    ]
  },
  {
    "admin_name": "Quảng Ninh",
    "place_id": 308015779,
    "lat": 21.1718046,
    "lng": 107.2012742,
    "boundary_box": [
      "20.4646312",
      "21.6635306",
      "106.439154",
      "108.2232868"
    ]
  },
  {
    "admin_name": "Quảng Trị",
    "place_id": 308050932,
    "lat": 16.7897806,
    "lng": 106.9797431,
    "boundary_box": [
      "16.302796",
      "17.3665004",
      "106.5142953",
      "107.6883175"
    ]
  },
  {
    "admin_name": "Sóc Trăng",
    "place_id": 308012975,
    "lat": 9.5628369,
    "lng": 105.9493991,
    "boundary_box": [
      "8.3456879",
      "9.9380667",
      "105.5436626",
      "106.4538443"
    ]
  },
  {
    "admin_name": "Sơn La",
    "place_id": 307918129,
    "lat": 21.1508502,
    "lng": 103.8884294,
    "boundary_box": [
      "20.5730041",
      "22.0307043",
      "103.2122557",
      "105.0253074"
    ]
  },
  {
    "admin_name": "Tây Ninh",
    "place_id": 308051475,
    "lat": 11.4019366,
    "lng": 106.1626927,
    "boundary_box": [
      "10.9628485",
      "11.778382",
      "105.8091078",
      "106.4905804"
    ]
  },
  {
    "admin_name": "Thái Bình",
    "place_id": 308112873,
    "lat": 20.5296832,
    "lng": 106.3876068,
    "boundary_box": [
      "20.148953",
      "20.7289887",
      "106.1096698",
      "106.839657"
    ]
  },
  {
    "admin_name": "Thái Nguyên",
    "place_id": 308551986,
    "lat": 21.592477,
    "lng": 105.8435398,
    "boundary_box": [
      "21.506377",
      "21.667904",
      "105.702273",
      "105.915233"
    ]
  },
  {
    "admin_name": "Thanh Hóa",
    "place_id": 308046007,
    "lat": 19.9781573,
    "lng": 105.4816107,
    "boundary_box": [
      "19.2088546",
      "20.67067",
      "104.3759531",
      "106.1492398"
    ],
    "has_train": true
  },
  {
    "admin_name": "Thừa Thiên Huế",
    "place_id": 348510194,
    "lat": 16.3480798,
    "lng": 107.5398913,
    "boundary_box": [
      "15.9943989",
      "17.1145026",
      "107.0162123",
      "108.4805829"
    ],
    "has_train": true
  },
  {
    "admin_name": "Tiền Giang",
    "place_id": 308022711,
    "lat": 10.4030368,
    "lng": 106.361633,
    "boundary_box": [
      "10.1399458",
      "10.5870076",
      "105.8157659",
      "106.9933717"
    ]
  },
  {
    "admin_name": "Trà Vinh",
    "place_id": 307958017,
    "lat": 9.8037998,
    "lng": 106.3256808,
    "boundary_box": [
      "9.0800586",
      "10.0822343",
      "105.9530798",
      "106.8722725"
    ]
  },
  {
    "admin_name": "Tuyên Quang",
    "place_id": 307954406,
    "lat": 22.1256755,
    "lng": 105.2089725,
    "boundary_box": [
      "21.4975892",
      "22.6959702",
      "104.8485977",
      "105.5983084"
    ]
  },
  {
    "admin_name": "Vĩnh Long",
    "place_id": 308072691,
    "lat": 10.1203043,
    "lng": 106.0125705,
    "boundary_box": [
      "9.8829837",
      "10.3315384",
      "105.6818716",
      "106.2896374"
    ]
  },
  {
    "admin_name": "Vĩnh Phúc",
    "place_id": 308013112,
    "lat": 21.3778689,
    "lng": 105.5758286,
    "boundary_box": [
      "21.1555845",
      "21.5738421",
      "105.3224806",
      "105.7928986"
    ]
  },
  {
    "admin_name": "Yên Bái",
    "place_id": 308685794,
    "lat": 21.69611,
    "lng": 104.8752392,
    "boundary_box": [
      "21.6518966",
      "21.79281",
      "104.8203591",
      "104.9549767"
    ]
  }
]